[

  {
      "site":"PDP",
      "nom_site":"Parc des Princes",
      "nom_du_parking_velo":"Parking vélo Parc des Princes",
      "adresse_du_parking_velo":"Place du Général Stefanik, 75016 Paris",
     
     
          "lon":2.256158110465575,
          "lat":48.839544023530145
  }
  ,
  {
      "site":"VEL",
      "nom_site":"Vélodrome National de Saint-Quentin-en-Yvelines",
      "nom_du_parking_velo":"Parking vélo Vélodrome National",
      "adresse_du_parking_velo":"Institut Franco-Japonais, 7 Rue Jean Pierre Timbaud, 78180 Montigny-le-Bretonneux",
    
     
          "lon":2.0340422583994795,
          "lat":48.790256915365134
  }
  ,
  {
      "site":"DEF",
      "nom_site":"Paris La Défense Arena",
      "nom_du_parking_velo":"Parking vélo Paris la Defense Arena - Arche",
      "adresse_du_parking_velo":"Place Carpeaux, 92800 Puteaux",
      
     
          "lon":2.238068068310757,
          "lat":48.8937175086811
  }
  ,
  {
      "site":"LCO",
      "nom_site":"La Concorde",
      "nom_du_parking_velo":"Parking vélo Concorde - Tuileries",
      "adresse_du_parking_velo":"Quai des Tuileries, 75001 Paris",
      
     
          "lon":2.3240658815116353,
          "lat":48.8629091322133
  }
  ,
  {
      "site":"EIF",
      "nom_site":"Stade Tour Eiffel",
      "nom_du_parking_velo":"Parking vélo Eiffel",
      "adresse_du_parking_velo":"Boulevard de Grenelle proche rue St Saëns, 75015 Paris",
      
     
          "lon":2.2903719086611636,
          "lat":48.852885154096754
  }
  ,
  {
      "site":"TRO",
      "nom_site":"Trocadéro",
      "nom_du_parking_velo":"Parking vélo Trocadéro",
      "adresse_du_parking_velo":"Allée Maria Callas,​ 75016 Paris",
      
     
          "lon":2.2855853116689038,
          "lat":48.863128452384636
  }
  ,
  {
      "site":"STA",
      "nom_site":"Stade de France",
      "nom_du_parking_velo":"Parking vélo Stade de France - Clinique St Denis",
      "adresse_du_parking_velo":"Boulevard Anatole France, 93200 St-Denis",
      
     
          "lon":2.355090888412856,
          "lat":48.92913236120498
  }
  ,
  {
      "site":"YDM",
      "nom_site":"Stade Yves-du-Manoir",
      "nom_du_parking_velo":"Parking vélo Yves du Manoir",
      "adresse_du_parking_velo":"Rue Robert Schuman, 92700 Colombes",
    
     
          "lon":2.242257352861577,
          "lat":48.92808560828277
    }
  ,
  {
      "site":"CSB",
      "nom_site":"Clichy-sous-Bois",
      "nom_du_parking_velo":"Parking vélo Clichy-sous-Bois",
      "adresse_du_parking_velo":"Allée de Gagny, 93390 Clichy-sous-Bois",
    
     
          "lon":2.549010221740701,
          "lat":48.90613878748625
  }
  ,
  
 
  {
      "site":"RGA / PDP",
      "nom_site":"Stade Roland Garros / Parc des Princes",
      "nom_du_parking_velo":"Parking vélo Roland Garros / Parc des Princes - Sarrail",
      "adresse_du_parking_velo":"Avenue du Général Sarrail, 75016 Paris",
    
     
          "lon":2.2553058482373074,
          "lat":48.8442890497198
  }
  ,

  {
      "site":"SPA",
      "nom_site":"Arena Paris Sud",
      "nom_du_parking_velo":"Parking vélo Arena Paris Sud",
      "adresse_du_parking_velo":"Intersection Avenue de la Porte de la Plaine et Avenue Albert Bartholomé, 75015 Paris",
    
     
          "lon":2.2928642728910003,
          "lat":48.829215590105186
  }
  ,
  {
      "site":"VER",
      "nom_site":"Château de Versailles",
      "nom_du_parking_velo":"Parking vélo Versailles - Trianon Est",
      "adresse_du_parking_velo":"Intersection Avenue de la Porte de la Plaine et Avenue Albert Bartholomé, 75015 Paris",
   
     
          "lon":2.112344855844686,
          "lat":48.81234087717832
  }
  ,
  {
      "site":"DEF",
      "nom_site":"Paris La Défense Arena",
      "nom_du_parking_velo":"Parking vélo Paris la Defense Arena - Mandela",
      "adresse_du_parking_velo":"Place Nelson Mandela, 92000 Nanterre",
   
     
          "lon":2.2190440593863165,
          "lat":48.89781920089077
  }
  ,
  {
      "site":"LCO",
      "nom_site":"La Concorde",
      "nom_du_parking_velo":"Parking vélo Concorde - Rivoli",
      "adresse_du_parking_velo":"Rue de Rivoli, 75001 Paris",
    
     
          "lon":2.332883082780821,
          "lat":48.863470224465374
  }
  ,
  {
      "site":"GRP",
      "nom_site":"Grand Palais",
      "nom_du_parking_velo":"Parking vélo Grand Palais",
      "adresse_du_parking_velo":"Avenue des Champs-Elysées, 75008 Paris",
   
     
          "lon":2.3112165256455133,
          "lat":48.86830130449388
  }
  ,
  {
      "site":"CDM",
      "nom_site":"Arena Champ de Mars",
      "nom_du_parking_velo":"Parking vélo Champ de Mars",
      "adresse_du_parking_velo":"Boulevard de Grenelle proche rue du Laos, 75015 Paris",
    
     
          "lon":2.3004875074952147,
          "lat":48.84826862112081
  }
  ,
  {
      "site":"STA",
      "nom_site":"Stade de France",
      "nom_du_parking_velo":"Parking vélo Stade de France - City Stade",
      "adresse_du_parking_velo":"Rue Ahmed Boughera el Ouafi, 93200 St-Denis",
     
     
          "lon":2.363878777089617,
          "lat":48.92290545302272
      
  }

]